city_ascii,lat,lng,iso3,population,weibull_a,weibull_k,avg_wind
Tokyo,35.6897,139.6922,JPN,37732000,6.435436118521341,1.8298594405011432,5.7212515482088415
Delhi,28.61,77.23,IND,32226000,5.083360327743902,1.7820720393483231,4.523703970560214
Guangzhou,23.13,113.26,CHN,26940000,6.327511075647866,2.051102354468369,5.621712438071646
Manila,14.5958,120.9772,PHL,24922000,7.183649723704268,1.8601571431974084,6.4154314738948175
Shanghai,31.1667,121.4667,CHN,24073000,7.577377691501525,2.5183418087842986,6.724655821265244
Sao Paulo,-23.55,-46.6333,BRA,23086000,5.935658822408537,2.2346578458460367,5.269013195503049
Mexico City,19.4333,-99.1333,MEX,21804000,4.404790515434451,1.487385372999238,3.9935561761623477
Cairo,30.0444,31.2358,EGY,20296000,7.9013612328506095,2.58370361328125,7.020443502286585
Beijing,39.904,116.4075,CHN,18522000,5.218290896532012,1.5541073682831554,4.715058117378049
Moscow,55.7558,37.6178,RUS,17332000,7.5233993902439025,2.832222989710366,6.702243116425305
Istanbul,41.0136,28.955,TUR,16079000,8.008293635670732,2.0490030428258383,7.097509765625
Karachi,24.86,67.01,PAK,15738000,7.319337723894817,2.4499499809451217,6.492235732660061
Bangalore,12.9789,77.5917,IND,15386000,6.965845322027439,2.1729329923304115,6.171193192644817
Ho Chi Minh City,10.7756,106.7019,VNM,15136000,5.34400664538872,2.4247624094893294,4.739407571932165
Chengdu,30.66,104.0633,CHN,14645000,3.5854611280487805,1.3611929544588417,3.2922940882240854
Rio de Janeiro,-22.9111,-43.2056,BRA,12592000,6.832679115853659,1.7684707269435975,6.087667921112805
Xi'an,34.2667,108.9,CHN,12328000,5.125777081745427,1.5416407143197408,4.631066001333841
London,51.5072,-0.1275,GBR,11262000,8.990086699695121,2.4014023199314023,7.970680497332317
Paris,48.8567,2.3522,FRA,11060000,7.486319788490854,2.299099359279725,6.63311737804878
Hyderabad,17.385,78.4867,IND,10494000,6.754833984375,2.121817537633384,5.985244378810975
Tianjin,39.1467,117.2056,CHN,10368000,6.818074742759146,2.09633506216654,6.039390005716464
Lima,-12.06,-77.0375,PER,10320000,7.7275414443597565,3.2253233374618904,6.924009741806403
Wuhan,30.5872,114.2881,CHN,10251000,5.978036275724086,1.8845703125,5.308404392149391
Hangzhou,30.25,120.1675,CHN,9523000,5.963538490853659,2.1358157274199696,5.285013338414634
Nagoya,35.1833,136.9,JPN,9197000,5.8000512099847565,1.6509260968464177,5.19197372808689
Luanda,-8.8383,13.2344,AGO,9051000,5.155768864329269,2.357068466558689,4.571776748285061
Kuala Lumpur,3.1478,101.6953,MYS,8911000,3.4319577100800305,1.867124082983994,3.0703273866234757
Nanjing,32.0608,118.7789,CHN,8422000,6.783647341844512,2.2754349871379573,6.00926483898628
Johannesburg,-26.2044,28.0456,ZAF,8000000,6.163063309832317,2.0028046398628048,5.4672434737042686
Bogota,4.7111,-74.0722,COL,7968095,5.04241913586128,1.706185392054116,4.526929306402439
Dar es Salaam,-6.8161,39.2803,TZA,7962000,6.457649342606707,2.5506118402248474,5.733167992568598
Shenyang,41.8025,123.4281,CHN,7964000,7.723314238757622,2.1855733731897864,6.840650009527439
Santiago,-33.4372,-70.6506,CHL,7171000,3.7658340081935977,1.4235504894721798,3.436601443407012
Madrid,40.4169,-3.7033,ESP,6211000,5.747795588795731,1.5780020364900915,5.181651343368903
Baghdad,33.3153,44.3661,IRQ,6183000,7.29530654535061,2.0921377786775914,6.462174876143293
Douala,4.05,9.7,CMR,5768400,3.876795326791159,2.0069069466939786,3.4412198694740854
Zhengzhou,34.7492,113.6605,CHN,5621593,6.675377524771341,1.7528696944073934,5.946877977324695
Jinan,36.6667,116.9833,CHN,5606374,7.013315786966463,1.805660787442836,6.241684332126525
Nairobi,-1.2864,36.8172,KEN,5545000,5.601801876905488,1.9783192704363568,5.012143316501525
Guadalajara,20.6767,-103.3475,MEX,5525000,4.600951552972561,1.5722496963128811,4.146194979039634
Ankara,39.93,32.85,TUR,5503985,5.948349371189025,1.6808986756859756,5.317967559070122
Belo Horizonte,-19.9167,-43.9333,BRA,5328000,6.3025080983231705,2.134343142625762,5.594923065929878
Rangoon,16.795,96.16,MMR,5209541,5.368467749618903,2.33048125476372,4.758687535727896
Atlanta,33.7628,-84.422,USA,5046555,6.452954697027439,2.301813339605564,5.717612661966464
Abidjan,5.3167,-4.0333,CIV,4980000,5.7659495283917686,3.04677734375,5.152508098323171
Alexandria,31.1975,29.8925,EGY,4870000,6.980956435785061,2.228908036394817,6.183673542301829
Sydney,-33.8678,151.21,AUS,4840600,8.806993140243902,2.084013106183308,7.801734589367378
Washington,38.9047,-77.0163,USA,4810669,7.02322432355183,2.2870480421112807,6.222831912157012
Barcelona,41.3825,2.1769,ESP,4800000,5.905403844321646,1.4009548280297257,5.384873999618902
Changsha,28.1987,112.9709,CHN,4766296,6.303139291158536,2.012837628620427,5.586722322789634
Melbourne,-37.8142,144.9631,AUS,4529500,8.459054639862805,1.9927707579077745,7.505178163109756
Berlin,52.52,13.405,DEU,4473101,7.937527391387195,2.4494072146532013,7.039827076981707
Kunming,25.0433,102.7061,CHN,4422686,7.098400581173781,2.2352035894626523,6.293526105182927
Casablanca,33.5333,-7.5833,MAR,4370000,6.014014267339939,1.8173202886814024,5.352770102896342
Urumqi,43.8225,87.6125,CHN,4335017,6.202439619855183,1.3132179818502288,5.7681503668064025
Kabul,34.5253,69.1783,AFG,4273156,5.05723847179878,1.4218546053258383,4.642392339939025
Hefei,31.8639,117.2808,CHN,4216940,6.966726014672256,2.246416789729421,6.171270007621951
Boston,42.3188,-71.0852,USA,4208580,7.391886194740854,2.2982207507621952,6.548824552210366
Shijiazhuang,38.0422,114.5086,CHN,4098243,5.284425614519817,1.537279677972561,4.769994819455031
Phoenix,33.5722,-112.0892,USA,4047095,4.342832388528963,1.3347730683117378,4.0043751786394814
Amman,31.9497,35.9328,JOR,4007526,6.91178603753811,2.0153388790967988,6.133480016196646
Taiyuan,37.8733,112.5425,CHN,3875053,6.035030606897866,1.528043272437119,5.449795160060976
Kano,12.0,8.5167,NGA,3848885,6.499361066120427,2.2334910322980184,5.758086413871951
Nanning,22.8192,108.315,CHN,3837978,6.911876548208841,2.0526644078696648,6.147689596036585
Harbin,45.75,126.6333,CHN,3830000,7.675050019054878,2.34955742068407,6.801679211128048
Fuzhou,26.0769,119.2917,CHN,3671192,6.611225705030488,1.922166033488948,5.876945383955793
Medan,3.5894,98.6739,IDN,3632000,3.5770969297827744,2.0634354754192072,3.1817281583460364
Nanchang,28.6842,115.8872,CHN,3576547,6.485683236471036,1.9979103646627288,5.749502191310976
Ibadan,7.3964,3.9167,NGA,3552000,4.908432974466463,2.479153070217225,4.355184415491616
Lucknow,26.85,80.95,IND,3382000,5.231946693978658,1.7497542218464175,4.659823385099085
Mashhad,36.3,59.6,IRN,3372090,6.027776057545732,1.5437991258574697,5.450407298018293
Guiyang,26.5794,106.7078,CHN,3299724,6.973691763528963,2.1079831007050305,6.181230945121952
Santa Cruz,-17.7892,-63.1975,BOL,3151676,9.53024366425305,2.1851096548685214,8.443828005907012
Jaipur,26.9,75.8,IND,3073350,5.334578053544207,1.9814858041158536,4.7300084556021345
Lanzhou,36.0617,103.8318,CHN,3067141,5.8519566977896345,1.4742839534108232,5.314578768102134
Athens,37.9842,23.7281,GRC,3041131,8.008212652439024,1.8218709806116613,7.134203506097561
Brasilia,-15.7939,-47.8828,BRA,3039444,6.536371593940549,2.289608243616616,5.798356516768293
Bursa,40.1833,29.05,TUR,2901396,6.129056902629573,1.497303288157393,5.5610512338033535
Salvador,-12.9747,-38.4767,BRA,2886698,6.895238066882622,2.6372293611852133,6.127266935022866
Haikou,20.02,110.32,CHN,2873358,7.815268316501524,2.5100198885289635,6.935418254573171
La Paz,-16.5,-68.15,BOL,2867504,5.368099752286585,1.7939634741806405,4.799477777248476
Pyongyang,39.0194,125.7381,PRK,2863000,6.301538681402439,1.8073580113852896,5.604458841463415
Stuttgart,48.7775,9.18,DEU,2787724,6.495688833841464,1.681735303925305,5.8053818121189025
Guayaquil,-2.19,-79.8875,ECU,2723665,4.878534977610518,2.4795628989615093,4.340136123285061
Lisbon,38.7253,-9.15,PRT,2719000,8.406175566882622,2.242500119092988,7.446983970083841
Maracaibo,10.6333,-71.6333,VEN,2658355,6.767020769817073,2.251889707983994,5.997333508003049
Denver,39.762,-104.8758,USA,2650725,6.437010527820122,1.6121760670731706,5.809912109375
Antananarivo,-18.9333,47.5167,MDG,2610000,6.950071455792683,2.287579792301829,6.165580340129573
Munich,48.1375,11.575,DEU,2606021,6.641892744855183,1.7598553913395578,5.916361590129573
Santo Domingo,18.4764,-69.8933,DOM,2581827,7.212525009527439,2.4726811106612043,6.401106373856707
Medellin,6.2308,-75.5906,COL,2529403,3.618262611947408,1.7776553270293445,3.2374166349085365
Hamburg,53.55,10.0,DEU,2484800,9.050796732088417,2.5557191430068595,8.035438500381098
Cali,3.4206,-76.5222,COL,2471474,3.0231820455411587,1.3790644948075457,2.793969131097561
Lusaka,-15.4167,28.2833,ZMB,2467563,7.004739305449695,2.748418147389481,6.234157655297256
Xining,36.6239,101.7787,CHN,2467965,6.100877119855183,1.41218886956936,5.5728158346036585
Daegu,35.8717,128.6017,KOR,2461002,6.152111518673781,1.7005649473608997,5.494820645960366
Fortaleza,-3.7275,-38.5275,BRA,2452185,9.105181140434452,2.777252643864329,8.105859375
Yaounde,3.8667,11.5167,CMR,2440462,5.347042325647866,2.76865859613186,4.7622046493902435
Antalya,36.8874,30.7075,TUR,2426356,5.657847036966463,1.3403757979230182,5.21530106707317
Nagpur,21.1497,79.0806,IND,2405665,5.478064858041159,1.962375547827744,4.857326302877286
Brisbane,-27.4678,153.0281,AUS,2360241,7.0219530059070125,2.2946813071646344,6.222899199695122
Colombo,6.9344,79.8428,LKA,2323826,6.803532298018292,2.322325618092606,6.029838152629573
Baku,40.3667,49.8352,AZE,2300500,9.360297375190548,1.7529704768483232,8.340645245807927
Fukuoka,33.5833,130.4,JPN,2286000,7.238964248285061,1.7633669969512196,6.448068311737805
Caracas,10.4806,-66.9036,VEN,2245744,8.558357350419207,2.297421934546494,7.592918135480183
Konya,37.8667,32.4833,TUR,2232374,6.152442001714939,1.5729976002762958,5.538639124428354
Esfahan,32.6447,51.6675,IRN,2219343,5.51754716082317,1.371599746331936,5.057362328506097
Harare,-17.8292,31.0522,ZWE,2150000,6.574498618521342,2.38378340558308,5.828698432736281
Havana,23.1367,-82.3589,CUB,2141652,8.506576982516687,2.567893019000304,7.553356578049151
Perth,-31.9559,115.8606,AUS,2141834,9.174751691120427,2.473887224895198,8.141995760289634
Phnom Penh,11.5694,104.9211,KHM,2129371,5.673932926829268,2.1841305616425304,5.02581757336128
Haiphong,20.8651,106.6838,VNM,2103500,6.619759908536586,1.963356278582317,5.891874285442073
Kumasi,6.6667,-1.6167,GHA,2069350,4.83251953125,2.4387416932641006,4.286395710270579
Bamako,12.6458,-7.9922,MLI,2009109,6.232601109946646,2.0953705578315547,5.5223585175304875
Quito,-0.22,-78.5125,ECU,2011388,5.792974704649391,1.4694187071265243,5.324415253429878
Minsk,53.9,27.5667,BLR,2009786,8.252437237995426,2.684252036490092,7.337560737423781
Bamenda,5.9614,10.1517,CMR,2000000,3.539724657012195,1.6560079435022863,3.1791810570693597
Vienna,48.2083,16.3725,AUT,1973403,7.708901605373476,1.964283417492378,6.8428335794588415
Karaj,35.8272,50.9489,IRN,1973470,6.590395150533537,1.5764572515720274,5.927668873856708
Peshawar,34.0144,71.5675,PAK,1970042,5.475580578315549,1.4742363162157013,4.997443073551829
Sapporo,43.0667,141.35,JPN,1961690,7.965454697027439,1.8771481397675305,7.08333114996189
Sacramento,38.5677,-121.4685,USA,1924167,6.203806211890244,1.5691477705792682,5.578986042301829
San Juan,18.3985,-66.061,PRI,1915105,8.306607278963414,3.1801492830602136,7.437698885289634
Yinchuan,38.4795,106.2254,CHN,1901793,5.932402820121951,1.5521281916920733,5.3850919397865855
Curitiba,-25.4297,-49.2711,BRA,1879355,6.356899056783536,2.480693240282012,5.6415074790396345
Port Harcourt,4.8242,7.0336,NGA,1865000,4.458997475228658,2.6985771365282014,3.966214808022104
Warsaw,52.23,21.0111,POL,1860281,7.990268316501524,2.420445139815168,7.084727515243903
Meru,0.05,37.65,KEN,1833000,5.883894459794207,1.994690090272485,5.257014576981708
Bhopal,23.25,77.4167,IND,1798218,5.946199742759147,2.055046565358232,5.268621379573171
Davao,7.0667,125.6,PHL,1776949,5.30776962652439,1.543283602086509,4.804838748094512
Adana,37.0,35.3213,TUR,1765981,4.995161847370427,1.477232695788872,4.536853920541159
Diyarbakir,37.91,40.24,TUR,1732396,4.916578041634908,1.4527409251143293,4.459767113662347
Kampala,0.3136,32.5811,UGA,1680600,4.107368283155488,1.9897505597370424,3.642096393864329
Patna,25.6,85.1,IND,1684222,5.320668588033537,1.7929249833269818,4.7326398151676825
Tegucigalpa,14.1,-87.2167,HND,1682725,6.86770674542683,1.7425443323647103,6.183556235708841
Conakry,9.5092,-13.7122,GIN,1667864,4.187860851753049,2.003908929592225,3.7118941144245428
Recife,-8.05,-34.9,BRA,1653461,6.788515863185975,2.95596328363186,6.0583877191310975
Indianapolis,39.7771,-86.1458,USA,1659305,8.294882574314025,2.3110360494474085,7.349074647484756
Austin,30.3005,-97.7522,USA,1659251,7.362391625381098,2.26412978753811,6.52205185308689
Novosibirsk,55.0333,82.9167,RUS,1625631,7.816365162919207,2.2535760646913108,6.9246224752286585
Semarang,-6.9667,110.4167,IDN,1621384,4.821677007907774,1.7786734232088417,4.308382359946647
Stockholm,59.3294,18.0686,SWE,1611776,8.047834889481708,2.5507979230182927,7.144912347560975
Puebla,19.0333,-98.1833,MEX,1576259,5.166677782012195,1.6536295076695884,4.630861161394817
Cordoba,-31.4167,-64.1833,ARG,1565112,7.001527367568597,2.0493161085175307,6.205133503239329
Shiraz,29.61,52.5425,IRN,1565572,5.487809641768293,1.5608139410251525,4.947951005144817
Tabriz,38.0814,46.3006,IRN,1558693,7.0663121665396345,1.584996963128811,6.35830078125
Columbus,39.9862,-82.9855,USA,1556848,8.264784203506098,2.223743271246189,7.320217821074695
San Jose,9.9325,-84.08,CRI,1543000,5.607964343559451,1.5037368402248477,5.142961008955793
Palembang,-2.9861,104.7556,IDN,1535952,4.492641542016006,2.2371256014195886,3.9796005621189026
Panama City,8.9833,-79.5167,PAN,1500189,6.973702481897866,2.296369152534299,6.186011933117378
Belem,-1.4558,-48.5039,BRA,1499641,5.514519817073171,3.080904928067836,4.9306006454839935
Gwangju,35.1653,126.8486,KOR,1490092,6.427587295160061,1.8543599942835365,5.7123422017911585
Porto Alegre,-30.0331,-51.23,BRA,1484941,7.025545445884147,2.28489677615282,6.225259027248476
Valencia,10.1667,-68.0,VEN,1484430,5.8788002572408535,2.0173583984375,5.2256681116615855
Daejeon,36.351,127.385,KOR,1475221,5.719089415015244,1.7334457769626523,5.1011462700076216
Kyoto,35.0117,135.7683,JPN,1464890,5.966073385099086,1.6585604039634143,5.346345631669207
Amsterdam,52.3728,4.8936,NLD,1459402,9.315359422637195,2.40687538705221,8.2591796875
Dakar,14.6928,-17.4467,SEN,1438725,8.201223680449695,2.479699260432546,7.275423971036585
Khulna,22.8167,89.55,BGD,1400689,5.773988900533537,2.2199720429211127,5.114509098704269
Ulaanbaatar,47.9203,106.9172,MNG,1396288,7.240070622141768,1.8099543873856707,6.443514195884147
Goiania,-16.6667,-49.25,BRA,1393575,6.211710413490854,2.0023051936451983,5.515878072599086
Kayseri,38.7225,35.4875,TUR,1389680,6.366864758003048,1.5369879001524391,5.759873999618902
Auckland,-36.8406,174.74,NZL,1346091,9.04112519054878,2.241082019340701,8.009537561928354
Santiago,19.4572,-70.6889,DOM,1343423,7.209723346989329,2.6492654939977136,6.410551638719512
Prague,50.0875,14.4214,CZE,1335084,6.696722560975609,1.8253525152439023,5.955891530106707
Samsun,41.2903,36.3336,TUR,1335716,6.339270317263719,1.6001799792778202,5.69290205792683
Barranquilla,10.9833,-74.8019,COL,1326588,11.427181783536586,2.0646542432831554,10.12528701410061
Mandalay,21.9831,96.0844,MMR,1319452,5.0170856754954265,1.6345862411871188,4.495110339653201
Adelaide,-34.9275,138.6,AUS,1295714,8.540879263528963,2.151205965367759,7.56585663586128
Tripoli,32.8872,13.1914,LBY,1293016,8.049013910060976,1.853607773199314,7.149359279725609
Porto,41.1621,-8.622,PRT,1278210,8.253670445884147,1.84659453601372,7.335000238185976
Providence,41.823,-71.4187,USA,1270149,7.487295160060976,2.2524119307355184,6.632163443216464
Ahvaz,31.3203,48.6692,IRN,1261042,5.955564024390244,1.6755380025724085,5.3199046065167686
Kazan,55.7964,49.1089,RUS,1243500,8.277377096036586,2.5603366758765245,7.349961890243902
Can Tho,10.0333,105.7833,VNM,1237300,6.10532822027439,2.6428225633574693,5.42559784679878
Mombasa,-4.05,39.6667,KEN,1208333,7.406701957888719,2.6444413347942075,6.582815477324695
Chelyabinsk,55.15,61.4,RUS,1202371,8.31445252953506,2.6601663729039635,7.3905749809451216
Qom,34.64,50.8764,IRN,1201158,6.12129501714939,1.4212056974085363,5.574037133193597
Hiroshima,34.3914,132.4519,JPN,1198021,5.76487411871189,1.6310329530297256,5.1689953315548784
Maiduguri,11.8333,13.15,NGA,1197497,6.446186047065549,2.2210551936451983,5.71005204363567
Chiang Mai,18.7953,98.9986,THA,1198000,3.836982540967988,1.4260396817835366,3.514700242949695
Maputo,-25.9667,32.5833,MOZ,1191613,7.971969678925305,2.482430360375381,7.072699123475609
Medina,24.47,39.61,SAU,1180770,7.994898056402439,1.968795850800305,7.095982993521342
Srinagar,34.09,74.79,IND,1180570,2.3504177186547257,0.9772197444264482,2.383994200171494
Omsk,54.9667,73.3833,RUS,1178391,8.551449361661586,2.5664273890053355,7.592690667873476
Dublin,53.35,-6.2603,IRL,1173179,10.637696503429876,2.079652814167302,9.42864424542683
Samara,53.2028,50.1408,RUS,1169719,7.928621022294207,2.4256843380811737,7.031535227705793
Ulsan,35.55,129.3167,KOR,1166033,8.731060046684451,1.931074337842988,7.747415086699695
Benin City,6.3333,5.6222,NGA,1147188,4.7336434713224085,2.355717207745808,4.19648467273247
Rostov,47.2333,39.7,RUS,1137704,8.48098739996189,2.4103237245141007,7.519143602324695
Callao,-12.0333,-77.1333,PER,1129854,8.103755001905487,3.273253501333841,7.266384217797256
Salt Lake City,40.7776,-111.9311,USA,1135344,5.840521984565549,1.4296743997713417,5.319620569740854
Ufa,54.7261,55.9475,RUS,1115560,7.777300281059452,2.314148098084985,6.891469964748476
Fes,34.0433,-5.0033,MAR,1112072,5.218957221798781,1.3144095071932165,4.821088390815548
Sao Luis,-2.5283,-44.3044,BRA,1108975,7.574903534679878,3.0893173589939025,6.773530392530488
Bien Hoa,10.95,106.8167,VNM,1104000,4.935245272008384,2.157640410632622,4.374330101943597
Sevilla,37.24,-5.99,ESP,1100000,5.9059641768292686,1.838395579268293,5.252017435213415
Nashville,36.1715,-86.7842,USA,1098486,7.638614710365854,2.136856897865853,6.7670957983993905
Tamale,9.4075,-0.8533,GHA,1095808,5.202580745045732,2.0182687154630337,4.6108374618902435
Krasnoyarsk,56.0089,92.8719,RUS,1083865,7.122184641768293,1.965454250428735,6.318546946455792
Ranchi,23.36,85.33,IND,1073440,5.257804163490854,1.9526614305449688,4.6653213128810975
Oslo,59.9133,10.7389,NOR,1064235,6.834221370045731,2.140531214272104,6.056850228658536
Chandigarh,30.75,76.78,IND,1055450,5.230693835746951,1.6507821431974086,4.678399509336891
Edmonton,53.5344,-113.4903,CAN,1062643,8.156346465320121,2.2822709246379573,7.225331078506097
Sendai,38.2682,140.8694,JPN,1061177,7.360446836890244,1.5531107088414635,6.636460913681402
Raleigh,35.8324,-78.6429,USA,1062018,7.414627000762195,2.418356993140244,6.574093702362805
Tunis,36.8064,10.1817,TUN,1056247,8.180210318216464,1.99415595822218,7.252222275152439
Barquisimeto,10.0678,-69.3467,VEN,1059092,7.450007145579268,2.3633089391196647,6.6277117473323175
Voronezh,51.6717,39.2106,RUS,1050602,8.055268673780487,2.624675471608232,7.157026486280488
Perm,58.0139,56.2489,RUS,1048005,7.427285394435976,2.4291651283822406,6.58670029058689
Cartagena,10.4,-75.5,COL,1036412,6.72708174542683,1.703224442644817,6.004955459222561
Managua,12.1544,-86.2738,NIC,1028808,8.76190274866616,2.280778987233232,7.788889815167683
Niamey,13.515,2.1175,NER,1026848,7.195329768483232,2.3376128406059453,6.376441025152439
Denizli,37.7667,29.0833,TUR,1027782,5.180815906059451,1.370682879192073,4.761389457888719
Maceio,-9.6658,-35.735,BRA,1025360,6.701567859184451,2.9552511075647865,5.980705745045731
Volgograd,48.7086,44.5147,RUS,1015586,8.36889052972561,2.5590689310213413,7.4301340987042686
Islamabad,33.6931,73.0639,PAK,1014825,4.17142333984375,1.5951346048494666,3.7543844083460365
Raipur,21.25,81.63,IND,1010087,4.813611435308689,1.7529660108612806,4.2870361328125
Arequipa,-16.4,-71.5333,PER,1008290,3.733275473990092,1.4309195169588416,3.4014773485137195
Richmond,37.5295,-77.4756,USA,1008069,6.808337700076219,2.4141792111280487,6.036500809832317
Quetta,30.1833,67.0,PAK,1001205,6.154389767530488,1.5320656381002289,5.610799352134146
